[
  {
    "id": 323143188,
    "name": null,
    "shop": "bakery",
    "office": null,
    "craft": null,
    "street": "Alte Dorfstraße",
    "housenumber": "4",
    "postcode": null,
    "city": null,
    "lat": 52.5103045,
    "lon": 7.3861361
  },
  {
    "id": 637540239,
    "name": "Jack & Jones",
    "shop": "clothes",
    "office": null,
    "craft": null,
    "street": null,
    "housenumber": null,
    "postcode": null,
    "city": null,
    "lat": 52.5198682,
    "lon": 7.3168678
  },
  {
    "id": 637540257,
    "name": "MediaMarkt",
    "shop": "electronics",
    "office": null,
    "craft": null,
    "street": "Lookenstraße",
    "housenumber": "22",
    "postcode": "49808",
    "city": "Lingen (Ems)",
    "lat": 52.5198557,
    "lon": 7.3176697
  },
  {
    "id": 654170022,
    "name": "Elsen",
    "shop": "bakery",
    "office": null,
    "craft": null,
    "street": null,
    "housenumber": null,
    "postcode": null,
    "city": null,
    "lat": 52.5086406,
    "lon": 7.2880658
  },
  {
    "id": 875491411,
    "name": "Schäfer's",
    "shop": "bakery",
    "office": null,
    "craft": null,
    "street": null,
    "housenumber": null,
    "postcode": null,
    "city": null,
    "lat": 52.5240358,
    "lon": 7.304276
  },
  {
    "id": 890368419,
    "name": "Kiosk",
    "shop": "kiosk",
    "office": null,
    "craft": null,
    "street": null,
    "housenumber": null,
    "postcode": null,
    "city": null,
    "lat": 52.5261313,
    "lon": 7.3302707
  },
  {
    "id": 896282913,
    "name": "Profi Friesen",
    "shop": "doityourself",
    "office": null,
    "craft": null,
    "street": "Meppener Straße",
    "housenumber": "135",
    "postcode": "49808",
    "city": "Lingen (Ems)",
    "lat": 52.5348937,
    "lon": 7.3018032
  },
  {
    "id": 942364963,
    "name": "Famila Getränke",
    "shop": "alcohol",
    "office": null,
    "craft": null,
    "street": null,
    "housenumber": null,
    "postcode": null,
    "city": null,
    "lat": 52.5048238,
    "lon": 7.3219846
  },
  {
    "id": 976463045,
    "name": "Biener Landbäckerei Wintering – Bäckerei in Bramsche (im EDEKA)",
    "shop": "bakery",
    "office": null,
    "craft": null,
    "street": "Mundersumer Straße",
    "housenumber": "6",
    "postcode": "49811",
    "city": "Lingen (Ems)",
    "lat": 52.457492,
    "lon": 7.367395
  },
  {
    "id": 983406153,
    "name": "Biener Landbäckerei Wintering – Biener-Café in Lingen-Biene",
    "shop": "bakery",
    "office": null,
    "craft": null,
    "street": "Am Treffpunkt",
    "housenumber": "1",
    "postcode": "49808",
    "city": "Lingen (Ems)",
    "lat": 52.5673783,
    "lon": 7.2881796
  },
  {
    "id": 986521145,
    "name": null,
    "shop": "vacant",
    "office": null,
    "craft": null,
    "street": null,
    "housenumber": null,
    "postcode": null,
    "city": null,
    "lat": 52.4562732,
    "lon": 7.3665357
  },
  {
    "id": 1026406837,
    "name": "Blickpunkt",
    "shop": "interior_decoration",
    "office": null,
    "craft": null,
    "street": null,
    "housenumber": null,
    "postcode": null,
    "city": null,
    "lat": 52.5065297,
    "lon": 7.3218874
  },
  {
    "id": 1026418319,
    "name": null,
    "shop": "laundry",
    "office": null,
    "craft": null,
    "street": null,
    "housenumber": null,
    "postcode": null,
    "city": null,
    "lat": 52.5069819,
    "lon": 7.3225642
  },
  {
    "id": 1056467458,
    "name": "Tischlerei Hemker GmbH",
    "shop": null,
    "office": null,
    "craft": "carpenter",
    "street": "Suurhookstraße",
    "housenumber": "3",
    "postcode": "49811",
    "city": "Lingen (Ems)",
    "lat": 52.4572876,
    "lon": 7.3777532
  },
  {
    "id": 1056468168,
    "name": "Gebrüder Lüken GmbH",
    "shop": null,
    "office": null,
    "craft": "carpet_layer",
    "street": "Estringer Straße",
    "housenumber": "26",
    "postcode": "49811",
    "city": "Lingen (Ems)",
    "lat": 52.4672128,
    "lon": 7.38352
  },
  {
    "id": 1134463568,
    "name": "Elseberg",
    "shop": "car",
    "office": null,
    "craft": null,
    "street": null,
    "housenumber": null,
    "postcode": null,
    "city": null,
    "lat": 52.5102842,
    "lon": 7.3000828
  },
  {
    "id": 1134463766,
    "name": "Lusina‘s Schnittgefühl",
    "shop": "hairdresser",
    "office": null,
    "craft": null,
    "street": "Nordhorner Straße",
    "housenumber": "13a",
    "postcode": "49808",
    "city": "Lingen (Ems)",
    "lat": 52.5099632,
    "lon": 7.2994378
  },
  {
    "id": 1141277136,
    "name": "BigBox",
    "shop": "beverages",
    "office": null,
    "craft": null,
    "street": "Lindenstraße",
    "housenumber": "47",
    "postcode": "49808",
    "city": "Lingen (Ems)",
    "lat": 52.5124742,
    "lon": 7.3072295
  },
  {
    "id": 1192448013,
    "name": "Sozialverband VdK, Kreisgeschäftsstelle Lingen",
    "shop": null,
    "office": "yes",
    "craft": null,
    "street": "Pestalozzistraße",
    "housenumber": "1",
    "postcode": "49808",
    "city": "Lingen (Ems)",
    "lat": 52.5247427,
    "lon": 7.3106482
  },
  {
    "id": 1192736399,
    "name": "Gärtnerei Simon",
    "shop": "florist",
    "office": null,
    "craft": null,
    "street": null,
    "housenumber": null,
    "postcode": null,
    "city": null,
    "lat": 52.5358359,
    "lon": 7.3031035
  },
  {
    "id": 1192736405,
    "name": "Klukkert",
    "shop": "florist",
    "office": null,
    "craft": null,
    "street": null,
    "housenumber": null,
    "postcode": null,
    "city": null,
    "lat": 52.5469908,
    "lon": 7.345473
  },
  {
    "id": 1192736409,
    "name": "Thalia",
    "shop": "books",
    "office": null,
    "craft": null,
    "street": null,
    "housenumber": null,
    "postcode": null,
    "city": null,
    "lat": 52.5201119,
    "lon": 7.3191797
  },
  {
    "id": 1192736411,
    "name": "Pinke Panther Lingen",
    "shop": "clothes",
    "office": null,
    "craft": null,
    "street": "Große Straße",
    "housenumber": "20",
    "postcode": "49808",
    "city": "Lingen (Ems)",
    "lat": 52.5231938,
    "lon": 7.3150256
  },
  {
    "id": 1192736416,
    "name": "Klukkert",
    "shop": "pet",
    "office": null,
    "craft": null,
    "street": null,
    "housenumber": null,
    "postcode": null,
    "city": null,
    "lat": 52.542725,
    "lon": 7.3464613
  },
  {
    "id": 1192736424,
    "name": "Fielmann",
    "shop": "optician",
    "office": null,
    "craft": null,
    "street": "Am Markt",
    "housenumber": "11",
    "postcode": "49808",
    "city": "Lingen (Ems)",
    "lat": 52.522294,
    "lon": 7.3161421
  },
  {
    "id": 1192736429,
    "name": "Mensing",
    "shop": "clothes",
    "office": null,
    "craft": null,
    "street": null,
    "housenumber": null,
    "postcode": null,
    "city": null,
    "lat": 52.5209423,
    "lon": 7.3165943
  },
  {
    "id": 1192736439,
    "name": "C&A",
    "shop": "clothes",
    "office": null,
    "craft": null,
    "street": null,
    "housenumber": null,
    "postcode": null,
    "city": null,
    "lat": 52.5206146,
    "lon": 7.3198047
  },
  {
    "id": 1192736445,
    "name": "H&M",
    "shop": "clothes",
    "office": null,
    "craft": null,
    "street": null,
    "housenumber": null,
    "postcode": null,
    "city": null,
    "lat": 52.5208178,
    "lon": 7.3169956
  },
  {
    "id": 1192736465,
    "name": "Thalia",
    "shop": "books",
    "office": null,
    "craft": null,
    "street": "Clubstraße",
    "housenumber": "2",
    "postcode": "49808",
    "city": "Lingen (Ems)",
    "lat": 52.522828,
    "lon": 7.3175653
  },
  {
    "id": 1192736491,
    "name": "Action",
    "shop": "variety_store",
    "office": null,
    "craft": null,
    "street": "Marienstraße",
    "housenumber": "3-5",
    "postcode": "49808",
    "city": "Lingen (Ems)",
    "lat": 52.5213468,
    "lon": 7.3184491
  },
  {
    "id": 1192736492,
    "name": "Landbäckerei & Winterings Café im Lookentor (Großes Café oben)",
    "shop": "bakery",
    "office": null,
    "craft": null,
    "street": "Poststraße (Im Lookentor-Erdgeschoss)",
    "housenumber": "11",
    "postcode": "49808",
    "city": "Lingen (Ems)",
    "lat": 52.5199466,
    "lon": 7.317796
  },
  {
    "id": 1192736519,
    "name": "New Yorker",
    "shop": "clothes",
    "office": null,
    "craft": null,
    "street": null,
    "housenumber": null,
    "postcode": null,
    "city": null,
    "lat": 52.5201946,
    "lon": 7.3192551
  },
  {
    "id": 1192736523,
    "name": "Hammer",
    "shop": "doityourself",
    "office": null,
    "craft": null,
    "street": null,
    "housenumber": null,
    "postcode": null,
    "city": null,
    "lat": 52.5426027,
    "lon": 7.3458578
  },
  {
    "id": 1193107976,
    "name": "BigBox",
    "shop": "beverages",
    "office": null,
    "craft": null,
    "street": null,
    "housenumber": null,
    "postcode": null,
    "city": null,
    "lat": 52.5295707,
    "lon": 7.3444092
  },
  {
    "id": 1193108023,
    "name": "KiK",
    "shop": "clothes",
    "office": null,
    "craft": null,
    "street": null,
    "housenumber": null,
    "postcode": null,
    "city": null,
    "lat": 52.5173507,
    "lon": 7.3160967
  },
  {
    "id": 1193108026,
    "name": "Timmer",
    "shop": "car",
    "office": null,
    "craft": null,
    "street": "Meppener Straße",
    "housenumber": "100-114",
    "postcode": "49808",
    "city": "Lingen (Ems)",
    "lat": 52.5322999,
    "lon": 7.3048165
  },
  {
    "id": 1193108045,
    "name": "SNOW-HOW! Ski & Snowboards",
    "shop": "sports",
    "office": null,
    "craft": null,
    "street": "Am Darmer Bahndamm",
    "housenumber": "1",
    "postcode": null,
    "city": null,
    "lat": 52.5018129,
    "lon": 7.3057927
  },
  {
    "id": 1193108114,
    "name": "KiK",
    "shop": "clothes",
    "office": null,
    "craft": null,
    "street": "Meppener Straße",
    "housenumber": "72",
    "postcode": "49808",
    "city": "Lingen (Ems)",
    "lat": 52.5312338,
    "lon": 7.3092772
  },
  {
    "id": 1313969477,
    "name": "Rossmann",
    "shop": "chemist",
    "office": null,
    "craft": null,
    "street": "Lookenstraße",
    "housenumber": "22",
    "postcode": "49808",
    "city": "Lingen (Ems)",
    "lat": 52.5203062,
    "lon": 7.3189062
  },
  {
    "id": 1444440144,
    "name": "Schäfer's",
    "shop": "bakery",
    "office": null,
    "craft": null,
    "street": "Meppener Straße",
    "housenumber": "12",
    "postcode": "49808",
    "city": "Lingen (Ems)",
    "lat": 52.5263208,
    "lon": 7.3127711
  },
  {
    "id": 1658037654,
    "name": "Geschenkebude",
    "shop": "gift",
    "office": null,
    "craft": null,
    "street": "Burgstraße",
    "housenumber": "3",
    "postcode": "49808",
    "city": "Lingen (Ems)",
    "lat": 52.5221439,
    "lon": 7.3177948
  },
  {
    "id": 1658037738,
    "name": "Fotogen",
    "shop": null,
    "office": null,
    "craft": "photographer",
    "street": "Burgstraße",
    "housenumber": "9",
    "postcode": "49808",
    "city": "Lingen (Ems)",
    "lat": 52.5223841,
    "lon": 7.3182245
  },
  {
    "id": 1862721161,
    "name": "Biener Landbäckerei Wintering – Landbäckerei und Café in Altenlingen",
    "shop": "bakery",
    "office": null,
    "craft": null,
    "street": "Meppener Straße",
    "housenumber": "131",
    "postcode": "49808",
    "city": "Lingen (Ems)",
    "lat": 52.5341117,
    "lon": 7.3030411
  },
  {
    "id": 2132341027,
    "name": "Bäckerei Musswessels",
    "shop": "bakery",
    "office": null,
    "craft": null,
    "street": null,
    "housenumber": null,
    "postcode": null,
    "city": null,
    "lat": 52.5420558,
    "lon": 7.3461256
  },
  {
    "id": 2291201316,
    "name": "Bäckerei Fehren",
    "shop": "bakery",
    "office": null,
    "craft": null,
    "street": null,
    "housenumber": null,
    "postcode": "49808",
    "city": null,
    "lat": 52.5338802,
    "lon": 7.3042792
  },
  {
    "id": 2291201319,
    "name": "Getränke Hoffmann",
    "shop": "beverages",
    "office": null,
    "craft": null,
    "street": null,
    "housenumber": null,
    "postcode": null,
    "city": null,
    "lat": 52.5337854,
    "lon": 7.3041134
  },
  {
    "id": 2390067514,
    "name": "Katasteramt Lingen",
    "shop": null,
    "office": "government",
    "craft": null,
    "street": "Jakob-Wolff-Platz",
    "housenumber": "1",
    "postcode": "49808",
    "city": "Lingen (Ems)",
    "lat": 52.5182562,
    "lon": 7.316915
  },
  {
    "id": 2732186469,
    "name": "AbendGalarie",
    "shop": "second_hand",
    "office": null,
    "craft": null,
    "street": null,
    "housenumber": null,
    "postcode": null,
    "city": null,
    "lat": 52.5126068,
    "lon": 7.3354137
  },
  {
    "id": 2765141913,
    "name": "Schäfer's Brotstuben GmbH",
    "shop": "bakery",
    "office": null,
    "craft": null,
    "street": "Schwedenschanze",
    "housenumber": "118",
    "postcode": "49809",
    "city": "Lingen (Ems)",
    "lat": 52.5126611,
    "lon": 7.3332565
  },
  {
    "id": 3679228282,
    "name": null,
    "shop": null,
    "office": null,
    "craft": "handicraft",
    "street": null,
    "housenumber": null,
    "postcode": null,
    "city": null,
    "lat": 52.5184923,
    "lon": 7.3163507
  },
  {
    "id": 3865505758,
    "name": "dm",
    "shop": "chemist",
    "office": null,
    "craft": null,
    "street": "Lookenstraße",
    "housenumber": "14a",
    "postcode": "49808",
    "city": "Lingen (Ems)",
    "lat": 52.5207006,
    "lon": 7.3169782
  },
  {
    "id": 4189247190,
    "name": "Stadt Lingen - Bürgerbüro",
    "shop": null,
    "office": "government",
    "craft": null,
    "street": null,
    "housenumber": null,
    "postcode": null,
    "city": null,
    "lat": 52.5208927,
    "lon": 7.3151516
  },
  {
    "id": 4191608291,
    "name": "Bürosysteme Emsland",
    "shop": "furniture",
    "office": null,
    "craft": null,
    "street": null,
    "housenumber": null,
    "postcode": null,
    "city": null,
    "lat": 52.5180216,
    "lon": 7.34557
  },
  {
    "id": 4191608292,
    "name": "Würth",
    "shop": "hardware",
    "office": null,
    "craft": null,
    "street": null,
    "housenumber": null,
    "postcode": null,
    "city": null,
    "lat": 52.5177351,
    "lon": 7.3468547
  },
  {
    "id": 4191654025,
    "name": "Ortmann Auto-Technik-GmbH",
    "shop": "car_repair",
    "office": null,
    "craft": null,
    "street": null,
    "housenumber": null,
    "postcode": null,
    "city": null,
    "lat": 52.518648,
    "lon": 7.3477327
  },
  {
    "id": 4191690861,
    "name": "Neuhaus Uhren & Schmuck",
    "shop": "jewelry",
    "office": null,
    "craft": null,
    "street": null,
    "housenumber": null,
    "postcode": null,
    "city": null,
    "lat": 52.5225249,
    "lon": 7.3174055
  },
  {
    "id": 4205786283,
    "name": "Schäfer's",
    "shop": "bakery",
    "office": null,
    "craft": null,
    "street": "Damaschkestraße",
    "housenumber": "53",
    "postcode": null,
    "city": null,
    "lat": 52.5434429,
    "lon": 7.355985
  },
  {
    "id": 4248005589,
    "name": "Touristinformation",
    "shop": null,
    "office": "company",
    "craft": null,
    "street": "Neue Straße",
    "housenumber": "3a",
    "postcode": "49808",
    "city": "Lingen (Ems)",
    "lat": 52.5212805,
    "lon": 7.3157703
  },
  {
    "id": 4451852487,
    "name": "Kurt Pietsch GmbH & Co. KG - Fachcenter",
    "shop": null,
    "office": "company",
    "craft": null,
    "street": "Herzforder Straße",
    "housenumber": "1",
    "postcode": "49808",
    "city": "Lingen (Ems)",
    "lat": 52.5054556,
    "lon": 7.2844948
  },
  {
    "id": 4615932365,
    "name": "ADAC Geschäftsstelle",
    "shop": "travel_agency",
    "office": null,
    "craft": null,
    "street": "Rheiner Straße",
    "housenumber": "127",
    "postcode": "49809",
    "city": "Lingen (Ems)",
    "lat": 52.5040664,
    "lon": 7.3227969
  },
  {
    "id": 4684031467,
    "name": "Hauptzollamt Osnabrück - Zollamt Lingen",
    "shop": null,
    "office": "government",
    "craft": null,
    "street": "Georgstraße",
    "housenumber": "18",
    "postcode": "49809",
    "city": "Lingen (Ems)",
    "lat": 52.5226134,
    "lon": 7.3274527
  },
  {
    "id": 4801834948,
    "name": "THW Regionalstelle Lingen",
    "shop": null,
    "office": "government",
    "craft": null,
    "street": "Feuerdornstraße",
    "housenumber": "3",
    "postcode": "49808",
    "city": "Lingen (Ems)",
    "lat": 52.5124544,
    "lon": 7.2869772
  },
  {
    "id": 4917642521,
    "name": "Opel Fedder",
    "shop": "car",
    "office": null,
    "craft": null,
    "street": null,
    "housenumber": null,
    "postcode": null,
    "city": null,
    "lat": 52.536247,
    "lon": 7.3004426
  },
  {
    "id": 5147984421,
    "name": "Gerry Weber",
    "shop": "clothes",
    "office": null,
    "craft": null,
    "street": "Lookenstraße",
    "housenumber": "10",
    "postcode": "49808",
    "city": "Lingen (Ems)",
    "lat": 52.51987,
    "lon": 7.316905
  },
  {
    "id": 5305516625,
    "name": "Reisebüro Berndt Lufthansa City Center",
    "shop": "travel_agency",
    "office": null,
    "craft": null,
    "street": "Am Markt",
    "housenumber": "16",
    "postcode": "49808",
    "city": null,
    "lat": 52.5226822,
    "lon": 7.316551
  },
  {
    "id": 5321820694,
    "name": "Haarmoden Rammes",
    "shop": "hairdresser",
    "office": null,
    "craft": null,
    "street": "Haselünner Straße",
    "housenumber": "40",
    "postcode": "49809",
    "city": "Lingen (Ems)",
    "lat": 52.5262283,
    "lon": 7.3305092
  },
  {
    "id": 5411106374,
    "name": "Depot",
    "shop": "interior_decoration",
    "office": null,
    "craft": null,
    "street": null,
    "housenumber": null,
    "postcode": null,
    "city": null,
    "lat": 52.5202787,
    "lon": 7.3187542
  },
  {
    "id": 5411106398,
    "name": "Leder Berensen",
    "shop": "bag",
    "office": null,
    "craft": null,
    "street": null,
    "housenumber": null,
    "postcode": null,
    "city": null,
    "lat": 52.5200312,
    "lon": 7.3178887
  },
  {
    "id": 5411107234,
    "name": "Deichmann",
    "shop": "shoes",
    "office": null,
    "craft": null,
    "street": null,
    "housenumber": null,
    "postcode": null,
    "city": null,
    "lat": 52.5201807,
    "lon": 7.3187229
  },
  {
    "id": 5411107235,
    "name": "Ditsch",
    "shop": "bakery",
    "office": null,
    "craft": null,
    "street": null,
    "housenumber": null,
    "postcode": null,
    "city": null,
    "lat": 52.5202078,
    "lon": 7.3188171
  },
  {
    "id": 5411107626,
    "name": "I am",
    "shop": "jewelry",
    "office": null,
    "craft": null,
    "street": null,
    "housenumber": null,
    "postcode": null,
    "city": null,
    "lat": 52.5200516,
    "lon": 7.3181419
  },
  {
    "id": 5411107627,
    "name": "Apollo-Optik",
    "shop": "optician",
    "office": null,
    "craft": null,
    "street": null,
    "housenumber": null,
    "postcode": null,
    "city": null,
    "lat": 52.5200182,
    "lon": 7.3180266
  },
  {
    "id": 5411107806,
    "name": "ONLY",
    "shop": "clothes",
    "office": null,
    "craft": null,
    "street": null,
    "housenumber": null,
    "postcode": null,
    "city": null,
    "lat": 52.5201543,
    "lon": 7.3185925
  },
  {
    "id": 5411108665,
    "name": "Betty Barclay",
    "shop": "clothes",
    "office": null,
    "craft": null,
    "street": null,
    "housenumber": null,
    "postcode": null,
    "city": null,
    "lat": 52.5200801,
    "lon": 7.3182654
  },
  {
    "id": 5411108731,
    "name": "Vis a Vis for women",
    "shop": "clothes",
    "office": null,
    "craft": null,
    "street": null,
    "housenumber": null,
    "postcode": null,
    "city": null,
    "lat": 52.5201111,
    "lon": 7.3184109
  },
  {
    "id": 5478826255,
    "name": "Biener Landbäckerei Wintering",
    "shop": "bakery",
    "office": null,
    "craft": null,
    "street": "Lengericher Straße",
    "housenumber": "3",
    "postcode": "49809",
    "city": "Lingen (Ems)",
    "lat": 52.5208032,
    "lon": 7.3390245
  },
  {
    "id": 5486250522,
    "name": "Fehren",
    "shop": "bakery",
    "office": null,
    "craft": null,
    "street": null,
    "housenumber": null,
    "postcode": null,
    "city": null,
    "lat": 52.5219277,
    "lon": 7.3413268
  },
  {
    "id": 5487355010,
    "name": "Rossmann",
    "shop": "chemist",
    "office": null,
    "craft": null,
    "street": "Meppener Straße",
    "housenumber": "129",
    "postcode": "49808",
    "city": "Lingen (Ems)",
    "lat": 52.5347802,
    "lon": 7.3034325
  },
  {
    "id": 5572107954,
    "name": "Esprit",
    "shop": "clothes",
    "office": null,
    "craft": null,
    "street": null,
    "housenumber": null,
    "postcode": null,
    "city": null,
    "lat": 52.5201262,
    "lon": 7.3188359
  },
  {
    "id": 5851509191,
    "name": "Rechtsanwälte & Fachanwälte Bruns & Schulte-Nieters",
    "shop": null,
    "office": "lawyer",
    "craft": null,
    "street": "Am Markt",
    "housenumber": "16",
    "postcode": "49808",
    "city": "Lingen (Ems)",
    "lat": 52.5228277,
    "lon": 7.3165688
  },
  {
    "id": 5982790990,
    "name": "Kiosk",
    "shop": "kiosk",
    "office": null,
    "craft": null,
    "street": null,
    "housenumber": null,
    "postcode": null,
    "city": null,
    "lat": 52.5240761,
    "lon": 7.3042773
  },
  {
    "id": 6150225438,
    "name": "Hofladen Krone-Raue",
    "shop": "farm",
    "office": null,
    "craft": null,
    "street": "Bramharstraße",
    "housenumber": "12",
    "postcode": "49811",
    "city": "Lingen (Ems)",
    "lat": 52.5851363,
    "lon": 7.365413
  },
  {
    "id": 6152537717,
    "name": null,
    "shop": "bakery",
    "office": null,
    "craft": null,
    "street": "Waldstraße",
    "housenumber": "65",
    "postcode": "49808",
    "city": "Lingen (Ems)",
    "lat": 52.5329719,
    "lon": 7.3224367
  },
  {
    "id": 6152595862,
    "name": "Stadtkiosk",
    "shop": "kiosk",
    "office": null,
    "craft": null,
    "street": "Rheiner Straße",
    "housenumber": "110a",
    "postcode": "49809",
    "city": "Lingen (Ems)",
    "lat": 52.5069196,
    "lon": 7.3229681
  },
  {
    "id": 6154174421,
    "name": "Schäfer's",
    "shop": "bakery",
    "office": null,
    "craft": null,
    "street": "Josefstraße",
    "housenumber": "29",
    "postcode": "49809",
    "city": "Lingen (Ems)",
    "lat": 52.5256427,
    "lon": 7.3428798
  },
  {
    "id": 6168878799,
    "name": "Hörgeräte Vehr",
    "shop": "hearing_aids",
    "office": null,
    "craft": null,
    "street": "Mühlentorstraße",
    "housenumber": "1",
    "postcode": "49808",
    "city": "Lingen (Ems)",
    "lat": 52.5236077,
    "lon": 7.3145987
  },
  {
    "id": 6196612632,
    "name": "Cl. Hellmann",
    "shop": "jewelry",
    "office": null,
    "craft": null,
    "street": "Burgstraße",
    "housenumber": "13",
    "postcode": "49808",
    "city": "Lingen (Ems)",
    "lat": 52.5225211,
    "lon": 7.3184718
  },
  {
    "id": 6196612634,
    "name": "Augenweide Johannes G. Kramer",
    "shop": "optician",
    "office": null,
    "craft": null,
    "street": "Burgstraße",
    "housenumber": "11",
    "postcode": "49808",
    "city": "Lingen (Ems)",
    "lat": 52.5224574,
    "lon": 7.3182867
  },
  {
    "id": 6262462404,
    "name": "Kleinstadtliebe",
    "shop": "interior_decoration",
    "office": null,
    "craft": null,
    "street": "Große Straße",
    "housenumber": "13",
    "postcode": "49808",
    "city": "Lingen (Ems)",
    "lat": 52.5230487,
    "lon": 7.315595
  },
  {
    "id": 6289557306,
    "name": "Benner",
    "shop": "houseware",
    "office": null,
    "craft": null,
    "street": "Burgstraße",
    "housenumber": "33-35",
    "postcode": "49808",
    "city": "Lingen (Ems)",
    "lat": 52.522927,
    "lon": 7.320956
  },
  {
    "id": 6289572125,
    "name": "Lingen unverpackt",
    "shop": "convenience",
    "office": null,
    "craft": null,
    "street": "Große Straße",
    "housenumber": "3",
    "postcode": "49808",
    "city": "Lingen (Ems)",
    "lat": 52.5227867,
    "lon": 7.3160557
  },
  {
    "id": 6289657607,
    "name": "Braut & Abendmoden HAVIENN",
    "shop": "clothes",
    "office": null,
    "craft": null,
    "street": "Große Straße",
    "housenumber": "22",
    "postcode": "49808",
    "city": "Lingen (Ems)",
    "lat": 52.5232529,
    "lon": 7.3149057
  },
  {
    "id": 6289824003,
    "name": "Tattoo & Beyond sieben vier null",
    "shop": "tattoo",
    "office": null,
    "craft": null,
    "street": "Burgstraße",
    "housenumber": "12",
    "postcode": "49808",
    "city": "Lingen (Ems)",
    "lat": 52.5224847,
    "lon": 7.3181322
  },
  {
    "id": 6328410328,
    "name": "TEDi",
    "shop": "variety_store",
    "office": null,
    "craft": null,
    "street": null,
    "housenumber": null,
    "postcode": null,
    "city": null,
    "lat": 52.5217915,
    "lon": 7.3258109
  },
  {
    "id": 6328414278,
    "name": "Postenbörse",
    "shop": "variety_store",
    "office": null,
    "craft": null,
    "street": null,
    "housenumber": null,
    "postcode": null,
    "city": null,
    "lat": 52.5342929,
    "lon": 7.3028824
  },
  {
    "id": 6841647487,
    "name": "Augenoptik und Hörgeräte Volmer",
    "shop": "optician",
    "office": null,
    "craft": null,
    "street": null,
    "housenumber": null,
    "postcode": null,
    "city": null,
    "lat": 52.5225004,
    "lon": 7.3175476
  },
  {
    "id": 6935875587,
    "name": "BP Lingen",
    "shop": null,
    "office": "company",
    "craft": null,
    "street": null,
    "housenumber": null,
    "postcode": null,
    "city": null,
    "lat": 52.5522925,
    "lon": 7.3215751
  },
  {
    "id": 7167410263,
    "name": "Lohner Landbäcker",
    "shop": "bakery",
    "office": null,
    "craft": null,
    "street": "Rheiner Straße",
    "housenumber": "115",
    "postcode": "49809",
    "city": "Lingen (Ems)",
    "lat": 52.5057209,
    "lon": 7.320917
  },
  {
    "id": 7167410264,
    "name": "Schäfer’s Brotstuben",
    "shop": "bakery",
    "office": null,
    "craft": null,
    "street": "Rheiner Straße",
    "housenumber": "110a",
    "postcode": "49809",
    "city": "Lingen (Ems)",
    "lat": 52.5069255,
    "lon": 7.3226908
  },
  {
    "id": 7627537151,
    "name": "toom Baumarkt",
    "shop": "doityourself",
    "office": null,
    "craft": null,
    "street": null,
    "housenumber": null,
    "postcode": null,
    "city": null,
    "lat": 52.542103,
    "lon": 7.3452957
  },
  {
    "id": 7627537154,
    "name": "JYSK",
    "shop": "furniture",
    "office": null,
    "craft": null,
    "street": null,
    "housenumber": null,
    "postcode": null,
    "city": null,
    "lat": 52.542491,
    "lon": 7.3450837
  },
  {
    "id": 9013564733,
    "name": "Ingenieurbüro Böker GbR",
    "shop": null,
    "office": "yes",
    "craft": null,
    "street": "Fiskediek",
    "housenumber": "7a",
    "postcode": "49809",
    "city": "Lingen (Ems)",
    "lat": 52.5175663,
    "lon": 7.3404783
  },
  {
    "id": 9235407680,
    "name": "Außenstelle Lingen der Landwirtschaftskammer (LWK) Niedersachsen",
    "shop": null,
    "office": "yes",
    "craft": null,
    "street": "Am Hundesand",
    "housenumber": "12",
    "postcode": "49809",
    "city": "Lingen (Ems)",
    "lat": 52.5193339,
    "lon": 7.3472509
  },
  {
    "id": 9375935174,
    "name": "Stadtkiosk Julius Frilling",
    "shop": "kiosk",
    "office": null,
    "craft": null,
    "street": "Jägerplatz",
    "housenumber": "7",
    "postcode": "49811",
    "city": "Lingen (Ems)",
    "lat": 52.5286289,
    "lon": 7.3690511
  },
  {
    "id": 9375961181,
    "name": "Schnittpunkt",
    "shop": "hairdresser",
    "office": null,
    "craft": null,
    "street": null,
    "housenumber": null,
    "postcode": null,
    "city": null,
    "lat": 52.528892,
    "lon": 7.369473
  },
  {
    "id": 9628324063,
    "name": "IG BAU Mitgliederbüro Lingen",
    "shop": null,
    "office": "union",
    "craft": null,
    "street": "Kaiserstraße",
    "housenumber": "2",
    "postcode": "49809",
    "city": "Lingen (Ems)",
    "lat": 52.5220488,
    "lon": 7.3254969
  },
  {
    "id": 9819834433,
    "name": "Sonderpreis Baumarkt",
    "shop": "doityourself",
    "office": null,
    "craft": null,
    "street": "Lindenstraße",
    "housenumber": "47",
    "postcode": "49808",
    "city": "Lingen (Ems)",
    "lat": 52.5125967,
    "lon": 7.3072062
  },
  {
    "id": 9857597414,
    "name": "Lingener Tagespost",
    "shop": null,
    "office": "newspaper",
    "craft": null,
    "street": "Bernd-Rosemeyer-Straße",
    "housenumber": "9-11",
    "postcode": "49808",
    "city": "Lingen (Ems)",
    "lat": 52.521849,
    "lon": 7.3220942
  },
  {
    "id": 10132632485,
    "name": "Hochschule Osnabrück Gebäude LN",
    "shop": null,
    "office": "educational_institution",
    "craft": null,
    "street": "Bernd-Rosemeyer-Straße",
    "housenumber": "9-11",
    "postcode": "49808",
    "city": "Lingen (Ems)",
    "lat": 52.522043,
    "lon": 7.3221786
  },
  {
    "id": 10171154022,
    "name": "Vodafone",
    "shop": "mobile_phone",
    "office": null,
    "craft": null,
    "street": null,
    "housenumber": null,
    "postcode": null,
    "city": null,
    "lat": 52.5207957,
    "lon": 7.3166692
  },
  {
    "id": 10171154023,
    "name": "Mayer",
    "shop": "bakery",
    "office": null,
    "craft": null,
    "street": null,
    "housenumber": null,
    "postcode": null,
    "city": null,
    "lat": 52.5207027,
    "lon": 7.3166692
  },
  {
    "id": 10171154024,
    "name": "Ernsting's family",
    "shop": "clothes",
    "office": null,
    "craft": null,
    "street": null,
    "housenumber": null,
    "postcode": null,
    "city": null,
    "lat": 52.5205966,
    "lon": 7.3166504
  },
  {
    "id": 10171154025,
    "name": "Löning",
    "shop": "clothes",
    "office": null,
    "craft": null,
    "street": "Lookenstraße",
    "housenumber": "16",
    "postcode": null,
    "city": null,
    "lat": 52.5205428,
    "lon": 7.3169696
  },
  {
    "id": 10171154026,
    "name": "Mein Reisebüro",
    "shop": "travel_agency",
    "office": null,
    "craft": null,
    "street": null,
    "housenumber": null,
    "postcode": null,
    "city": null,
    "lat": 52.5200279,
    "lon": 7.3165445
  },
  {
    "id": 10171154027,
    "name": "Tchibo",
    "shop": "coffee",
    "office": null,
    "craft": null,
    "street": null,
    "housenumber": null,
    "postcode": null,
    "city": null,
    "lat": 52.5199373,
    "lon": 7.3164721
  },
  {
    "id": 10171154028,
    "name": "Woolworth",
    "shop": "department_store",
    "office": null,
    "craft": null,
    "street": null,
    "housenumber": null,
    "postcode": null,
    "city": null,
    "lat": 52.5196941,
    "lon": 7.3166665
  },
  {
    "id": 10171154030,
    "name": "Tipico",
    "shop": "bookmaker",
    "office": null,
    "craft": null,
    "street": null,
    "housenumber": null,
    "postcode": null,
    "city": null,
    "lat": 52.5189335,
    "lon": 7.3166263
  },
  {
    "id": 10171154032,
    "name": "Stadt Friseur",
    "shop": "hairdresser",
    "office": null,
    "craft": null,
    "street": null,
    "housenumber": null,
    "postcode": null,
    "city": null,
    "lat": 52.5197765,
    "lon": 7.3161972
  },
  {
    "id": 10171198391,
    "name": "Vodafone",
    "shop": "mobile_phone",
    "office": null,
    "craft": null,
    "street": null,
    "housenumber": null,
    "postcode": null,
    "city": null,
    "lat": 52.5218125,
    "lon": 7.3177072
  },
  {
    "id": 10171198392,
    "name": "Telecom",
    "shop": "mobile_phone",
    "office": null,
    "craft": null,
    "street": null,
    "housenumber": null,
    "postcode": null,
    "city": null,
    "lat": 52.5217358,
    "lon": 7.3178923
  },
  {
    "id": 10171198393,
    "name": "Douglas",
    "shop": "perfumery",
    "office": null,
    "craft": null,
    "street": null,
    "housenumber": null,
    "postcode": null,
    "city": null,
    "lat": 52.5216265,
    "lon": 7.317718
  },
  {
    "id": 10171198394,
    "name": "engbers",
    "shop": "clothes",
    "office": null,
    "craft": null,
    "street": null,
    "housenumber": null,
    "postcode": null,
    "city": null,
    "lat": 52.5215775,
    "lon": 7.3176187
  },
  {
    "id": 10171198395,
    "name": "Stadtkiosk",
    "shop": "gift",
    "office": null,
    "craft": null,
    "street": "Lookenstraße",
    "housenumber": null,
    "postcode": null,
    "city": null,
    "lat": 52.5214714,
    "lon": 7.3174524
  },
  {
    "id": 10171198396,
    "name": "Wäschehaus",
    "shop": "clothes",
    "office": null,
    "craft": null,
    "street": "Lookenstraße",
    "housenumber": "4-6",
    "postcode": "49808",
    "city": "Lingen (Ems)",
    "lat": 52.5213539,
    "lon": 7.3172352
  },
  {
    "id": 10171198397,
    "name": "TEDi",
    "shop": "variety_store",
    "office": null,
    "craft": null,
    "street": null,
    "housenumber": null,
    "postcode": null,
    "city": null,
    "lat": 52.5212584,
    "lon": 7.3170823
  },
  {
    "id": 10171198398,
    "name": "BONITA",
    "shop": "clothes",
    "office": null,
    "craft": null,
    "street": null,
    "housenumber": null,
    "postcode": null,
    "city": null,
    "lat": 52.5213384,
    "lon": 7.3169401
  },
  {
    "id": 10171198399,
    "name": "Manos",
    "shop": "toys",
    "office": null,
    "craft": null,
    "street": null,
    "housenumber": null,
    "postcode": null,
    "city": null,
    "lat": 52.5212609,
    "lon": 7.3168463
  },
  {
    "id": 10171198400,
    "name": "Theo Dreier",
    "shop": "clothes",
    "office": null,
    "craft": null,
    "street": null,
    "housenumber": null,
    "postcode": null,
    "city": null,
    "lat": 52.5211972,
    "lon": 7.3167215
  },
  {
    "id": 11078226692,
    "name": "Greenflash GmbH",
    "shop": null,
    "office": "company",
    "craft": null,
    "street": "Fiskediek",
    "housenumber": "7a",
    "postcode": "49809",
    "city": "Lingen (Ems)",
    "lat": 52.5176437,
    "lon": 7.3402332
  },
  {
    "id": 11150003148,
    "name": "moduco GmbH",
    "shop": null,
    "office": "company",
    "craft": null,
    "street": "Am Darmer Bahndamm",
    "housenumber": "6-8",
    "postcode": "49808",
    "city": "Lingen (Ems)",
    "lat": 52.5014905,
    "lon": 7.3067934
  },
  {
    "id": 11202430140,
    "name": "Uhren Böckmann Juwelen",
    "shop": "jewelry",
    "office": null,
    "craft": null,
    "street": "Marienstraße",
    "housenumber": "1a",
    "postcode": "49808",
    "city": "Lingen (Ems)",
    "lat": 52.5215211,
    "lon": 7.3180418
  },
  {
    "id": 11266701492,
    "name": "Hydrotec Emsland",
    "shop": "repair",
    "office": null,
    "craft": null,
    "street": "Schillerstraße",
    "housenumber": "21",
    "postcode": "49811",
    "city": "Lingen (Ems)",
    "lat": 52.5463104,
    "lon": 7.3454613
  },
  {
    "id": 11409126003,
    "name": "FAHRWERK GmbH",
    "shop": "bicycle",
    "office": null,
    "craft": null,
    "street": "Meppener Straße",
    "housenumber": "104",
    "postcode": "49808",
    "city": "Lingen (Ems)",
    "lat": 52.5325739,
    "lon": 7.3044701
  },
  {
    "id": 11690637537,
    "name": "ProFina",
    "shop": null,
    "office": "insurance",
    "craft": null,
    "street": "Große Straße",
    "housenumber": "4",
    "postcode": "49808",
    "city": "Lingen (Ems)",
    "lat": 52.522713,
    "lon": 7.3158725
  },
  {
    "id": 11691276611,
    "name": "Barmenia Versicherung - Katarina Klein",
    "shop": null,
    "office": "insurance",
    "craft": null,
    "street": "Am Sandhügel",
    "housenumber": "2",
    "postcode": "49811",
    "city": "Lingen (Ems)",
    "lat": 52.5493563,
    "lon": 7.3756779
  },
  {
    "id": 11698660001,
    "name": "Hilbers",
    "shop": "shoes",
    "office": null,
    "craft": null,
    "street": "Lookenstraße",
    "housenumber": "1",
    "postcode": "49808",
    "city": "Lingen (Ems)",
    "lat": 52.521685,
    "lon": 7.317493
  },
  {
    "id": 11939153058,
    "name": "Barmenia Versicherung - Michael Kaligas",
    "shop": null,
    "office": "insurance",
    "craft": null,
    "street": "Schlachterstr.",
    "housenumber": "4",
    "postcode": "49808",
    "city": "Lingen (Ems)",
    "lat": 52.5217513,
    "lon": 7.3160722
  },
  {
    "id": 12433605943,
    "name": "Landbäckerei & Café im Lookentor (Kleines Café unten)",
    "shop": "bakery",
    "office": null,
    "craft": null,
    "street": "Lookenstraße (Im Lookentor-Untergeschoss)",
    "housenumber": "22",
    "postcode": "49808",
    "city": "Lingen (Ems)",
    "lat": 52.5202791,
    "lon": 7.3189019
  },
  {
    "id": 12433628106,
    "name": "Robert Koop & Kollegen, Rechtsanwälte – Notarin",
    "shop": null,
    "office": "lawyer",
    "craft": null,
    "street": "Burgstraße",
    "housenumber": "32",
    "postcode": "49808",
    "city": "Lingen (Ems)",
    "lat": 52.5230783,
    "lon": 7.3208767
  },
  {
    "id": 13025685702,
    "name": "Stadtkiosk Julius Frilling",
    "shop": "kiosk",
    "office": null,
    "craft": null,
    "street": "Schwedenschanze",
    "housenumber": "50",
    "postcode": "49809",
    "city": null,
    "lat": 52.5143346,
    "lon": 7.3237842
  },
  {
    "id": 13028405902,
    "name": "Sundag",
    "shop": "bakery",
    "office": null,
    "craft": null,
    "street": "Thüringer Straße",
    "housenumber": "4",
    "postcode": "49809",
    "city": null,
    "lat": 52.5143289,
    "lon": 7.3232684
  },
  {
    "id": 13064967870,
    "name": "Barmenia Versicherung",
    "shop": null,
    "office": "insurance",
    "craft": null,
    "street": "Langschmidtsweg",
    "housenumber": "16",
    "postcode": "49808",
    "city": "Lingen (Ems)",
    "lat": 52.5240479,
    "lon": 7.3058909
  }
]